{"locations":{"site":[{"title":"Launceston LINC","address":"Civic Square, Launceston","latitude":"-41.43600248","longitude":"147.1371675"},{"title":"Burnie LINC","address":"30 Alexander Street, Burnie","latitude":"-41.050675","longitude":"145.903823"},{"title":"West Coast Community Services","address":"9-13 Driffield St, Queenstown","latitude":"-42.07873148","longitude":"145.5563378"},{"title":"Currie Library","address":"Meech Street, Currie","latitude":"-39.9294022","longitude":"143.8518047"},{"title":"Dover Online Access Centre","address":"'The old school', Main Road, Dover","latitude":"-43.31422444","longitude":"147.0151994"},{"title":"Beaconsfield Library","address":"Beaconsfield Primary School, Beaconsfield","latitude":"-41.20172067","longitude":"146.8207848"},{"title":"Bicheno Library + OAC","address":"Burgess Street, Bicheno ","latitude":"-41.8772192","longitude":"148.3034455"},{"title":"Bridport Library + OAC","address":"Main Street, Bridport","latitude":"-41.00259336","longitude":"147.3940051"},{"title":"Campbell Town Library","address":"High Street, Campbell Town","latitude":"-41.92705864","longitude":"147.4941802"},{"title":"Cape Barren Island Library","address":"Cape Barren Island School, Cape Barren","latitude":"-40.37026932","longitude":"148.0266738"},{"title":"Deloraine Library","address":"Emu Bay Road, Deloraine","latitude":"-41.52505367","longitude":"146.6565907"},{"title":"Exeter Library","address":"Main Road, Exeter","latitude":"-41.30053997","longitude":"146.9533181"},{"title":"George Town Community Hub","address":"12 Elizabeth Street, George Town","latitude":"-41.107135","longitude":"146.822501"},{"title":"Lilydale Library","address":"District School, 1947 Main Street, Lilydale","latitude":"-41.252327","longitude":"147.215048"},{"title":"Longford Library + OAC","address":"Lyttleton Street, Longford","latitude":"-41.59368548","longitude":"147.1222329"},{"title":"Ravenswood Library + OAC","address":"Eastside Village Shopping Centre, Ravenswood","latitude":"-41.41849777","longitude":"147.1751153"},{"title":"Ringarooma Library + OAC","address":"Main Street, Ringarooma","latitude":"-41.24147689","longitude":"147.7349299"},{"title":"Scottsdale LINC","address":"51 King Street, Scottsdale","latitude":"-41.16200894","longitude":"147.5153106"},{"title":"St Marys Library","address":"31 Main Street, St Marys","latitude":"-41.57908455","longitude":"148.1868178"},{"title":"Westbury Library","address":"William Street, Westbury","latitude":"-41.52674847","longitude":"146.8330693"},{"title":"Whitemark Library + OAC","address":"Davies Street, Whitemark","latitude":"-40.12199375","longitude":"148.0165887"},{"title":"Beaconsfield OAC","address":"The Old Courthouse, Grubb Street, Beaconsfield","latitude":"-41.20176103","longitude":"146.8191004"},{"title":"Bracknell OAC","address":"Bracknell Primary School, 53 Jane Street, Bracknell","latitude":"-41.652505","longitude":"146.934156"},{"title":"St Helens OAC","address":"Library building, 61 Cecilia Street, St Helens","latitude":"-41.320788","longitude":"148.249084"},{"title":"St Helens Library","address":"61 Cecilia Street, St Helens","latitude":"-41.320788","longitude":"148.249084"},{"title":"Campbell Town OAC","address":"Old School House, Hamilton Street, PO Box 33, Campbell Town","latitude":"-41.926197","longitude":"147.490425"},{"title":"Deloraine OAC","address":"Behind Deloraine Library, 21 West Parade, Deloraine","latitude":"-41.52512596","longitude":"146.6565585"},{"title":"Derby OAC","address":"'Old School House,' Main Street, Derby","latitude":"-41.143388","longitude":"147.798525"},{"title":"Exeter OAC","address":"c/- Tresca Community Centre, Main Road, Exeter","latitude":"-41.30053997","longitude":"146.9533181"},{"title":"Fingal OAC","address":"Old Council Chambers, 29 Talbot Street, Fingal","latitude":"-41.638575","longitude":"147.970915"},{"title":"Lilydale OAC","address":"Lilydale District School, Main Road, Lilydale","latitude":"-41.252327","longitude":"147.215048"},{"title":"Mole Creek OAC","address":"Pioneer Drive, Mole Creek","latitude":"-41.556493","longitude":"146.407306"},{"title":"St Marys OAC","address":"23b Main Street, St Marys","latitude":"-41.57908455","longitude":"148.1868178"},{"title":"Hobart LINC","address":"1st Floor, 91 Murray Street, Hobart","latitude":"-42.88195103","longitude":"147.3246673"},{"title":"Bothwell Library","address":"Alexander Street, Bothwell","latitude":"-42.38203811","longitude":"147.0080566"},{"title":"Bridgewater LINC","address":"Green Point Road, Bridgewater (behind Brighton Civic Centre)","latitude":"-42.739418","longitude":"147.243549"},{"title":"Cygnet Library","address":"Mary Street, Cygnet","latitude":"-43.16180455","longitude":"147.076571"},{"title":"Geeveston Library + OAC","address":"Church Street, Geeveston","latitude":"-43.16406619","longitude":"146.9270647"},{"title":"Glenorchy LINC","address":"4 Terry Street, Glenorchy","latitude":"-42.834443","longitude":"147.275185"},{"title":"Huon LINC","address":"1 Skinner Drive, Huonville","latitude":"-43.03119611","longitude":"147.0497328"},{"title":"Kingston LINC","address":"11 Hutchins Street, Kingston","latitude":"-42.976517","longitude":"147.310917"},{"title":"New Norfolk Library","address":"Charles Street, New Norfolk","latitude":"-42.78155898","longitude":"147.0643401"},{"title":"Oatlands Library + OAC","address":"Oatlands District High School, Oatlands","latitude":"-42.30134118","longitude":"147.3699403"},{"title":"Orford Library","address":"Charles Street, Orford","latitude":"-42.56223177","longitude":"147.8723288"},{"title":"Rosny LINC","address":"Bligh Street, Rosny","latitude":"-42.86406715","longitude":"147.370525"},{"title":"Sorell Library","address":"Cole Street, Sorell","latitude":"-42.7815078","longitude":"147.564159"},{"title":"Swansea OAC","address":"Franklin Street, Swansea","latitude":"-42.12190921","longitude":"148.072958"},{"title":"Tasman Library","address":"Tasman District High, Nubeena","latitude":"-43.09772398","longitude":"147.7444196"},{"title":"Bagdad OAC","address":"Midland Highway, Bagdad","latitude":"-42.61715981","longitude":"147.2219682"},{"title":"Bruny Island OAC","address":"School Road, Alonnah, Bruny Island","latitude":"-43.318145","longitude":"147.245274"},{"title":"Colebrook OAC","address":"22 Richmond Street, Colebrook","latitude":"-42.53518441","longitude":"147.3651767"},{"title":"Derwent Valley OAC","address":"Library Building, Charles Street, New Norfolk","latitude":"-42.78155898","longitude":"147.0643401"},{"title":"Dover OAC","address":"'The Old School' Main Road, Dover","latitude":"-43.31422444","longitude":"147.0151994"},{"title":"Glenora OAC","address":"Gordon River Road, Glenora","latitude":"-42.69681964","longitude":"146.8894386"},{"title":"Ouse OAC","address":"Old Library, Lyell Highway, Ouse","latitude":"-42.48546956","longitude":"146.7112112"},{"title":"Richmond OAC","address":"54 Bridge Street, Richmond","latitude":"-42.73872312","longitude":"147.4371457"},{"title":"Swansea OAC","address":"Franklin Street, Swansea","latitude":"-42.12190921","longitude":"148.072958"},{"title":"Woodbridge OAC","address":"West Winds Community Centre, 3528 Channel Highway, Woodbridge","latitude":"-43.16835446","longitude":"147.2389734"},{"title":"Devonport LINC","address":"21 Oldaker Street, Devonport","latitude":"-41.176881","longitude":"146.359302"},{"title":"Latrobe Library + OAC","address":"Gilbert Street, Latrobe","latitude":"-41.2352","longitude":"146.411351"},{"title":"Penguin Library","address":"Main Street, Penguin","latitude":"-41.11340645","longitude":"146.0728025"},{"title":"Rosebery Library + OAC","address":"Rosebery District High, Morrisby Street, Rosebery","latitude":"-41.77968088","longitude":"145.5414462"},{"title":"Sheffield Library + OAC","address":"Sheffield District High, Henry Street, Sheffield","latitude":"-41.3822184","longitude":"146.3280523"},{"title":"Smithton Library + OAC","address":"Nelson Street, Smithton","latitude":"-40.84159","longitude":"145.1228285"},{"title":"Strahan Library + OAC","address":"Strahan Primary School, 2 Bay Street, Strahan","latitude":"-42.153411","longitude":"145.320362"},{"title":"Ulverstone Library + OAC","address":"15 King Edward Street, Ulverstone","latitude":"-41.15569628","longitude":"146.1723715"},{"title":"West Coast Community Hub","address":"9-13 Driffield Street, Queenstown","latitude":"-42.07873148","longitude":"145.5563378"},{"title":"Wynyard Library + OAC","address":"13 Exhibition Link, Wynyard","latitude":"-40.99023238","longitude":"145.7265401"},{"title":"Zeehan Library + OAC","address":"Main Street, Zeehan","latitude":"-41.88772615","longitude":"145.339551"},{"title":"Devonport OAC","address":"21 Oldaker Street, Devonport","latitude":"-41.176881","longitude":"146.359302"},{"title":"King Island OAC","address":"5 Goerge Street, Currie","latitude":"-39.930478","longitude":"143.853307"},{"title":"Tullah OAC","address":"Farrell Street, Village Square, Tullah","latitude":"-41.737888","longitude":"145.615754"},{"title":"Wilmot OAC","address":"Wilmot Primary School, Wilmot","latitude":"-41.385374","longitude":"146.173482"},{"title":"Maydena OAC","address":"36 Kallista Road","latitude":"-42.75555","longitude":"146.628638"}]}}